[{"city": "MANS (LE )", "geometry": {"coordinates": [0.193737678276987, 47.994962783313696], "type": "Point"}, "uic_code": 87396002, "label": "Le Mans", "departement": "SARTHE", "line_code": 450000}, {"city": "DUNKERQUE", "geometry": {"coordinates": [2.364678910284622, 51.03464541750199], "type": "Point"}, "uic_code": 87281006, "label": "Dunkerque", "departement": "NORD", "line_code": 302526}, {"city": "MARSEILLE", "geometry": {"coordinates": [5.380881565078671, 43.30288219603332], "type": "Point"}, "uic_code": 87751008, "label": "Marseille-St-Charles", "departement": "BOUCHES-DU-RHONE", "line_code": 930000}, {"city": "BREST", "geometry": {"coordinates": [-4.479243011743672, 48.38792979521671], "type": "Point"}, "uic_code": 87474007, "label": "Brest", "departement": "FINISTERE", "line_code": 420000}, {"city": "MARSEILLE", "geometry": {"coordinates": [5.373128869066068, 43.31113606987528], "type": "Point"}, "uic_code": 87751008, "label": "Marseille-St-Charles", "departement": "BOUCHES-DU-RHONE", "line_code": 938000}, {"city": "STRASBOURG", "geometry": {"coordinates": [7.734259299051057, 48.5850633615385], "type": "Point"}, "uic_code": 87212027, "label": "Strasbourg-Ville", "departement": "BAS-RHIN", "line_code": 142000}, {"city": "BORDEAUX", "geometry": {"coordinates": [-0.555977516187793, 44.82592310197657], "type": "Point"}, "uic_code": 87581009, "label": "Bordeaux-St-Jean", "departement": "GIRONDE", "line_code": 640000}, {"city": "STRASBOURG", "geometry": {"coordinates": [7.73159495327842, 48.582870254886664], "type": "Point"}, "uic_code": 87212027, "label": "Strasbourg-Ville", "departement": "BAS-RHIN", "line_code": 115000}, {"city": "CHAMBERY", "geometry": {"coordinates": [5.919644744721904, 45.57190136350075], "type": "Point"}, "uic_code": 87741009, "label": "Chamb\u00e9ry-Challes-les-Eaux", "departement": "SAVOIE", "line_code": 900000}, {"city": "REIMS", "geometry": {"coordinates": [4.023685509962518, 49.25867118813272], "type": "Point"}, "uic_code": 87171009, "label": "Reims", "departement": "MARNE", "line_code": 74000}, {"city": "REIMS", "geometry": {"coordinates": [4.035063212229058, 49.26926632994256], "type": "Point"}, "uic_code": 87171009, "label": "Reims", "departement": "MARNE", "line_code": 82000}, {"city": "MULHOUSE", "geometry": {"coordinates": [7.343678088066526, 47.74235758219071], "type": "Point"}, "uic_code": 87182063, "label": "Mulhouse-Ville", "departement": "HAUT-RHIN", "line_code": 115000}, {"city": "AVIGNON", "geometry": {"coordinates": [4.786363657109745, 43.921960208373136], "type": "Point"}, "uic_code": 87318964, "label": "Avignon-TGV", "departement": "VAUCLUSE", "line_code": 830359}, {"city": "ANGOULEME", "geometry": {"coordinates": [0.133842881541189, 45.64063431668165], "type": "Point"}, "uic_code": 87583005, "label": "Angoul\u00eame", "departement": "CHARENTE", "line_code": 579000}, {"city": "ROCHELLE (LA )", "geometry": {"coordinates": [-1.145160124084133, 46.152516077800065], "type": "Point"}, "uic_code": 87485003, "label": "La Rochelle-Ville", "departement": "CHARENTE-MARITIME", "line_code": 530000}, {"city": "TOURS", "geometry": {"coordinates": [0.694722170814588, 47.388230867362154], "type": "Point"}, "uic_code": 87571000, "label": "Tours", "departement": "INDRE-ET-LOIRE", "line_code": 563300}, {"city": "ACHICOURT", "geometry": {"coordinates": [2.769175849883366, 50.27984684681309], "type": "Point"}, "uic_code": 87342014, "label": "Arras", "departement": "PAS-DE-CALAIS", "line_code": 307000}, {"city": "RENNES", "geometry": {"coordinates": [-1.700535913913354, 48.106479190857776], "type": "Point"}, "uic_code": 87471003, "label": "Rennes", "departement": "ILLE-ET-VILAINE", "line_code": 441000}, {"city": "NANTES", "geometry": {"coordinates": [-1.544074936864098, 47.21656946796599], "type": "Point"}, "uic_code": 87481002, "label": "Nantes", "departement": "LOIRE-ATLANTIQUE", "line_code": 515000}, {"city": "LA VILLE-AUX-DAMES", "geometry": {"coordinates": [0.779920172830149, 47.39031479417274], "type": "Point"}, "uic_code": 87571240, "label": "St-Pierre-des-Corps", "departement": "INDRE-ET-LOIRE", "line_code": 593000}, {"city": "MARSEILLE", "geometry": {"coordinates": [5.380843379830791, 43.30328316263962], "type": "Point"}, "uic_code": 87751008, "label": "Marseille-St-Charles", "departement": "BOUCHES-DU-RHONE", "line_code": 830000}, {"city": "MANS (LE )", "geometry": {"coordinates": [0.194090806361881, 47.99501903641245], "type": "Point"}, "uic_code": 87396002, "label": "Le Mans", "departement": "SARTHE", "line_code": 420000}, {"city": "DOUAI", "geometry": {"coordinates": [3.090430914770062, 50.37158212906495], "type": "Point"}, "uic_code": 87345009, "label": "Douai", "departement": "NORD", "line_code": 272000}, {"city": "TOULOUSE", "geometry": {"coordinates": [1.454396139877267, 43.610699417156994], "type": "Point"}, "uic_code": 87611004, "label": "Toulouse-Matabiau", "departement": "HAUTE-GARONNE", "line_code": 640000}, {"city": "NANTES", "geometry": {"coordinates": [-1.544230274778463, 47.216453501454815], "type": "Point"}, "uic_code": 87481002, "label": "Nantes", "departement": "LOIRE-ATLANTIQUE", "line_code": 530000}, {"city": "ANNECY", "geometry": {"coordinates": [6.121832970715078, 45.902210942827566], "type": "Point"}, "uic_code": 87746008, "label": "Annecy", "departement": "HAUTE-SAVOIE", "line_code": 897000}, {"city": "DIJON", "geometry": {"coordinates": [5.027142558968658, 47.32301605783183], "type": "Point"}, "uic_code": 87713040, "label": "Dijon-Ville", "departement": "COTE-D'OR", "line_code": 830000}, {"city": "DIJON", "geometry": {"coordinates": [5.031081954810281, 47.32036903431118], "type": "Point"}, "uic_code": 87713040, "label": "Dijon-Ville", "departement": "COTE-D'OR", "line_code": 850000}, {"city": "ARRAS", "geometry": {"coordinates": [2.781877763520991, 50.286700609415895], "type": "Point"}, "uic_code": 87342014, "label": "Arras", "departement": "PAS-DE-CALAIS", "line_code": 301000}, {"city": "PARIS", "geometry": {"coordinates": [2.356160022572003, 48.88164194195885], "type": "Point"}, "uic_code": 87271031, "label": "Paris-Nord-Surface", "departement": "PARIS", "line_code": 272000}, {"city": "GRENOBLE", "geometry": {"coordinates": [5.718515336422927, 45.1821096505], "type": "Point"}, "uic_code": 87747006, "label": "Grenoble", "departement": "ISERE", "line_code": 909000}, {"city": "PARIS", "geometry": {"coordinates": [2.356160022572003, 48.88164194195885], "type": "Point"}, "uic_code": 87271007, "label": "Paris-Nord", "departement": "PARIS", "line_code": 272000}, {"city": "DUNKERQUE", "geometry": {"coordinates": [2.369189693600088, 51.029267603724165], "type": "Point"}, "uic_code": 87281006, "label": "Dunkerque", "departement": "NORD", "line_code": 301000}, {"city": "TOULON", "geometry": {"coordinates": [5.929717733657507, 43.12858683538684], "type": "Point"}, "uic_code": 87755009, "label": "Toulon", "departement": "VAR", "line_code": 930000}, {"city": "NICE", "geometry": {"coordinates": [7.263747090810243, 43.70568273094509], "type": "Point"}, "uic_code": 87756056, "label": "Nice-Ville", "departement": "ALPES-MARITIMES", "line_code": 945000}, {"city": "STRASBOURG", "geometry": {"coordinates": [7.734259299051057, 48.5850633615385], "type": "Point"}, "uic_code": 87212027, "label": "Strasbourg-Ville", "departement": "BAS-RHIN", "line_code": 145000}, {"city": "ROCHELLE (LA )", "geometry": {"coordinates": [-1.140831956307871, 46.15542617138674], "type": "Point"}, "uic_code": 87485003, "label": "La Rochelle-Ville", "departement": "CHARENTE-MARITIME", "line_code": 539000}, {"city": "AVIGNON", "geometry": {"coordinates": [4.785988680479314, 43.92185220384599], "type": "Point"}, "uic_code": 87318964, "label": "Avignon-TGV", "departement": "VAUCLUSE", "line_code": 752000}, {"city": "B\u00c9THENY", "geometry": {"coordinates": [4.043097193543958, 49.275285331569215], "type": "Point"}, "uic_code": 87171009, "label": "Reims", "departement": "MARNE", "line_code": 81000}, {"city": "LAVAL", "geometry": {"coordinates": [-0.760858912745979, 48.07634359708306], "type": "Point"}, "uic_code": 87478404, "label": "Laval", "departement": "MAYENNE", "line_code": 420000}, {"city": "POITIERS", "geometry": {"coordinates": [0.332786866293223, 46.58236426461617], "type": "Point"}, "uic_code": 87575001, "label": "Poitiers", "departement": "VIENNE", "line_code": 570000}, {"city": "LYON", "geometry": {"coordinates": [4.860200803130667, 45.7605405399735], "type": "Point"}, "uic_code": 87723197, "label": "Lyon-Part-Dieu", "departement": "RHONE", "line_code": 893000}, {"city": "VANNES", "geometry": {"coordinates": [-2.752403881216254, 47.66520979262681], "type": "Point"}, "uic_code": 87476606, "label": "Vannes", "departement": "MORBIHAN", "line_code": 470000}, {"city": "ANGOULEME", "geometry": {"coordinates": [0.164145247222328, 45.6536427934391], "type": "Point"}, "uic_code": 87583005, "label": "Angoul\u00eame", "departement": "CHARENTE", "line_code": 570000}, {"city": "SAINT-PIERRE-DES-CORPS", "geometry": {"coordinates": [0.722359702714444, 47.385024861287015], "type": "Point"}, "uic_code": 87571240, "label": "St-Pierre-des-Corps", "departement": "INDRE-ET-LOIRE", "line_code": 562300}, {"city": "GOND-PONTOUVRE", "geometry": {"coordinates": [0.171257769804333, 45.661250844707475], "type": "Point"}, "uic_code": 87583005, "label": "Angoul\u00eame", "departement": "CHARENTE", "line_code": 610000}, {"city": "TOULOUSE", "geometry": {"coordinates": [1.452621936001713, 43.61661142647272], "type": "Point"}, "uic_code": 87611004, "label": "Toulouse-Matabiau", "departement": "HAUTE-GARONNE", "line_code": 718000}, {"city": "PERPIGNAN", "geometry": {"coordinates": [2.879350450581681, 42.69621526109872], "type": "Point"}, "uic_code": 87784009, "label": "Perpignan", "departement": "PYRENEES-ORIENTALES", "line_code": 677000}, {"city": "ARRAS", "geometry": {"coordinates": [2.781966934851945, 50.28649576679141], "type": "Point"}, "uic_code": 87342014, "label": "Arras", "departement": "PAS-DE-CALAIS", "line_code": 272000}, {"city": "BORDEAUX", "geometry": {"coordinates": [-0.555977516187793, 44.82592310197657], "type": "Point"}, "uic_code": 87581009, "label": "Bordeaux-St-Jean", "departement": "GIRONDE", "line_code": 570000}, {"city": "BORDEAUX", "geometry": {"coordinates": [-0.555977516187793, 44.82592310197657], "type": "Point"}, "uic_code": 87581009, "label": "Bordeaux-St-Jean", "departement": "GIRONDE", "line_code": 655000}, {"city": "NANTES", "geometry": {"coordinates": [-1.518765979566464, 47.22623886806051], "type": "Point"}, "uic_code": 87481002, "label": "Nantes", "departement": "LOIRE-ATLANTIQUE", "line_code": 519000}, {"city": "PARIS", "geometry": {"coordinates": [2.319820501512473, 48.840642843679696], "type": "Point"}, "uic_code": 87391003, "label": "Paris-Montparnasse", "departement": "PARIS", "line_code": 420000}, {"city": "NIMES", "geometry": {"coordinates": [4.366218272451483, 43.83252873427384], "type": "Point"}, "uic_code": 87775007, "label": "N\u00eemes", "departement": "GARD", "line_code": 810000}, {"city": "PARIS", "geometry": {"coordinates": [2.358926108129061, 48.877370873518124], "type": "Point"}, "uic_code": 87113001, "label": "Paris-Est", "departement": "PARIS", "line_code": 1000}, {"city": "TOURS", "geometry": {"coordinates": [0.695192977217622, 47.38843858718414], "type": "Point"}, "uic_code": 87571000, "label": "Tours", "departement": "INDRE-ET-LOIRE", "line_code": 515000}, {"city": "NICE", "geometry": {"coordinates": [7.261742357128732, 43.70479288117997], "type": "Point"}, "uic_code": 87756056, "label": "Nice-Ville", "departement": "ALPES-MARITIMES", "line_code": 930000}, {"city": "SIN-LE-NOBLE", "geometry": {"coordinates": [3.105729287582805, 50.358089979577], "type": "Point"}, "uic_code": 87345009, "label": "Douai", "departement": "NORD", "line_code": 262000}, {"city": "DIJON", "geometry": {"coordinates": [5.031277292082437, 47.30793362041367], "type": "Point"}, "uic_code": 87713040, "label": "Dijon-Ville", "departement": "COTE-D'OR", "line_code": 860000}, {"city": "REIMS", "geometry": {"coordinates": [4.024434919226613, 49.25946798424686], "type": "Point"}, "uic_code": 87171009, "label": "Reims", "departement": "MARNE", "line_code": 205000}, {"city": "MONTPELLIER", "geometry": {"coordinates": [3.877203795945029, 43.59916750164832], "type": "Point"}, "uic_code": 87773002, "label": "Montpellier-St-Roch", "departement": "HERAULT", "line_code": 694000}, {"city": "DOUAI", "geometry": {"coordinates": [3.090940541981851, 50.37461380618442], "type": "Point"}, "uic_code": 87345009, "label": "Douai", "departement": "NORD", "line_code": 259000}, {"city": "MARSEILLE", "geometry": {"coordinates": [5.384844423704736, 43.3051711980465], "type": "Point"}, "uic_code": 87751008, "label": "Marseille-St-Charles", "departement": "BOUCHES-DU-RHONE", "line_code": 939001}, {"city": "GRENOBLE", "geometry": {"coordinates": [5.714516819858535, 45.19083025226337], "type": "Point"}, "uic_code": 87747006, "label": "Grenoble", "departement": "ISERE", "line_code": 905000}, {"city": "STRASBOURG", "geometry": {"coordinates": [7.73159495327842, 48.582870254886664], "type": "Point"}, "uic_code": 87212027, "label": "Strasbourg-Ville", "departement": "BAS-RHIN", "line_code": 110000}, {"city": "RENNES", "geometry": {"coordinates": [-1.672881285302791, 48.103115825760746], "type": "Point"}, "uic_code": 87471003, "label": "Rennes", "departement": "ILLE-ET-VILAINE", "line_code": 420000}, {"city": "TOURS", "geometry": {"coordinates": [0.695556792192468, 47.38792066132393], "type": "Point"}, "uic_code": 87571000, "label": "Tours", "departement": "INDRE-ET-LOIRE", "line_code": 564300}, {"city": "TALENCE", "geometry": {"coordinates": [-0.599667616406122, 44.81660195256936], "type": "Point"}, "uic_code": 87581009, "label": "Bordeaux-St-Jean", "departement": "GIRONDE", "line_code": 586000}, {"city": "QUIMPER", "geometry": {"coordinates": [-4.092232861763617, 47.9948237413847], "type": "Point"}, "uic_code": 87474098, "label": "Quimper", "departement": "FINISTERE", "line_code": 470000}, {"city": "RENNES", "geometry": {"coordinates": [-1.680053484138563, 48.10225761720952], "type": "Point"}, "uic_code": 87471003, "label": "Rennes", "departement": "ILLE-ET-VILAINE", "line_code": 468000}, {"city": "ACHICOURT", "geometry": {"coordinates": [2.763713951877463, 50.278362955157576], "type": "Point"}, "uic_code": 87342014, "label": "Arras", "departement": "PAS-DE-CALAIS", "line_code": 306000}, {"city": "PERPIGNAN", "geometry": {"coordinates": [2.880575502602875, 42.693556905932496], "type": "Point"}, "uic_code": 87784009, "label": "Perpignan", "departement": "PYRENEES-ORIENTALES", "line_code": 679000}, {"city": "AIX-EN-PROVENCE", "geometry": {"coordinates": [5.317306755615248, 43.455236570533074], "type": "Point"}, "uic_code": 87319012, "label": "Aix-en-Provence-TGV", "departement": "BOUCHES-DU-RHONE", "line_code": 752000}, {"city": "CHASSENEUIL-DU-POITOU", "geometry": {"coordinates": [0.357769246636277, 46.63086243056295], "type": "Point"}, "uic_code": 87575001, "label": "Poitiers", "departement": "VIENNE", "line_code": 574000}, {"city": "SAINT-PIERRE-DES-CORPS", "geometry": {"coordinates": [0.725081914342085, 47.385843594967746], "type": "Point"}, "uic_code": 87571240, "label": "St-Pierre-des-Corps", "departement": "INDRE-ET-LOIRE", "line_code": 570000}, {"city": "LONGVIC", "geometry": {"coordinates": [5.047449224021286, 47.293823653132776], "type": "Point"}, "uic_code": 87713040, "label": "Dijon-Ville", "departement": "COTE-D'OR", "line_code": 849000}, {"city": "PARIS", "geometry": {"coordinates": [2.316170554884683, 48.837530059336544], "type": "Point"}, "uic_code": 87391102, "label": "Paris-Vaugirard", "departement": "PARIS", "line_code": 420000}, {"city": "STRASBOURG", "geometry": {"coordinates": [7.73159495327842, 48.582870254886664], "type": "Point"}, "uic_code": 87212027, "label": "Strasbourg-Ville", "departement": "BAS-RHIN", "line_code": 70000}, {"city": "SAINT-MALO", "geometry": {"coordinates": [-2.004051313466781, 48.64653029730645], "type": "Point"}, "uic_code": 87478107, "label": "St-Malo", "departement": "ILLE-ET-VILAINE", "line_code": 441000}, {"city": "TOURCOING", "geometry": {"coordinates": [3.168343953703256, 50.71667041875861], "type": "Point"}, "uic_code": 87286542, "label": "Tourcoing", "departement": "NORD", "line_code": 278000}, {"city": "MONTPELLIER", "geometry": {"coordinates": [3.882757509959065, 43.606091075625606], "type": "Point"}, "uic_code": 87773002, "label": "Montpellier-St-Roch", "departement": "HERAULT", "line_code": 810000}]